[{"listing_id":101,"donor_id":124,"receiver_id":null,"type":"swap","title":"E250","description":"Mauris enim leo, rhoncus sed, vestibulum sit amet, cursus id, turpis. Integer aliquet, massa id lobortis convallis, tortor risus dapibus augue, vel accumsan tellus nisi eu orci. Mauris lacinia sapien quis libero.\n\nNullam sit amet turpis elementum ligula vehicula consequat. Morbi a ipsum. Integer a nibh.","zipcode":"78682","city":"Round Rock","state":"TX","longitude":-97.6026,"latitude":30.6568,"completed":false,"completed_time":null,"images_urls":["https://source.unsplash.com/random/400x300/?img=1", "https://source.unsplash.com/random/400x300/?img=1", "https://picsum.photos/400/300"],"available_date":"2022-04-07T09:19:17Z"},
{"listing_id":102,"donor_id":121,"receiver_id":null,"type":"swap","title":"SLR McLaren","description":"Donec diam neque, vestibulum eget, vulputate ut, ultrices vel, augue. Vestibulum ante ipsum primis in faucibus orci luctus et ultrices posuere cubilia Curae; Donec pharetra, magna vestibulum aliquet ultrices, erat tortor sollicitudin mi, sit amet lobortis sapien sapien non mi. Integer ac neque.\n\nDuis bibendum. Morbi non quam nec dui luctus rutrum. Nulla tellus.","zipcode":"77281","city":"Houston","state":"TX","longitude":-95.4342,"latitude":29.834,"completed":false,"completed_time":null,"images_urls":["https://source.unsplash.com/random/400x300/?img=1", "https://source.unsplash.com/random/400x300/?img=1", "https://picsum.photos/400/300"],"available_date":"2022-03-31T04:47:34Z"},
{"listing_id":103,"donor_id":167,"receiver_id":null,"type":"swap","title":"PT Cruiser","description":"Cras mi pede, malesuada in, imperdiet et, commodo vulputate, justo. In blandit ultrices enim. Lorem ipsum dolor sit amet, consectetuer adipiscing elit.","zipcode":"76110","city":"Fort Worth","state":"TX","longitude":-97.3375,"latitude":32.7065,"completed":false,"completed_time":null,"images_urls":["https://source.unsplash.com/random/400x300/?img=1", "https://source.unsplash.com/random/400x300/?img=1", "https://picsum.photos/400/300"],"available_date":"2021-06-05T09:10:16Z"},
{"listing_id":104,"donor_id":108,"receiver_id":null,"type":"swap","title":"Frontier","description":"Sed ante. Vivamus tortor. Duis mattis egestas metus.\n\nAenean fermentum. Donec ut mauris eget massa tempor convallis. Nulla neque libero, convallis eget, eleifend luctus, ultricies eu, nibh.","zipcode":"76121","city":"Fort Worth","state":"TX","longitude":-97.2915,"latitude":32.7714,"completed":false,"completed_time":null,"images_urls":["https://source.unsplash.com/random/400x300/?img=1", "https://source.unsplash.com/random/400x300/?img=1", "https://picsum.photos/400/300"],"available_date":"2021-10-28T15:47:31Z"},
{"listing_id":105,"donor_id":125,"receiver_id":null,"type":"swap","title":"Trans Sport","description":"Morbi porttitor lorem id ligula. Suspendisse ornare consequat lectus. In est risus, auctor sed, tristique in, tempus sit amet, sem.","zipcode":"76505","city":"Temple","state":"TX","longitude":-97.492,"latitude":31.0363,"completed":false,"completed_time":null,"images_urls":["https://source.unsplash.com/random/400x300/?img=1", "https://source.unsplash.com/random/400x300/?img=1", "https://picsum.photos/400/300"],"available_date":"2021-06-25T23:11:18Z"},
{"listing_id":106,"donor_id":115,"receiver_id":null,"type":"swap","title":"Titan","description":"Duis consequat dui nec nisi volutpat eleifend. Donec ut dolor. Morbi vel lectus in quam fringilla rhoncus.","zipcode":"88574","city":"El Paso","state":"TX","longitude":-106.3,"latitude":31.6948,"completed":false,"completed_time":null,"images_urls":["https://source.unsplash.com/random/400x300/?img=1", "https://source.unsplash.com/random/400x300/?img=1", "https://picsum.photos/400/300"],"available_date":"2022-02-05T01:55:14Z"},
{"listing_id":107,"donor_id":101,"receiver_id":null,"type":"favor","title":"Savana 3500","description":"Sed sagittis. Nam congue, risus semper porta volutpat, quam pede lobortis ligula, sit amet eleifend pede libero quis orci. Nullam molestie nibh in lectus.\n\nPellentesque at nulla. Suspendisse potenti. Cras in purus eu magna vulputate luctus.","zipcode":"77075","city":"Houston","state":"TX","longitude":-95.26,"latitude":29.6223,"completed":false,"completed_time":null,"images_urls":["https://source.unsplash.com/random/400x300/?img=1", "https://source.unsplash.com/random/400x300/?img=1", "https://picsum.photos/400/300"],"available_date":"2022-03-22T11:52:59Z"},
{"listing_id":108,"donor_id":139,"receiver_id":null,"type":"swap","title":"Town & Country","description":"Vestibulum quam sapien, varius ut, blandit non, interdum in, ante. Vestibulum ante ipsum primis in faucibus orci luctus et ultrices posuere cubilia Curae; Duis faucibus accumsan odio. Curabitur convallis.","zipcode":"77276","city":"Houston","state":"TX","longitude":-95.3668,"latitude":29.7575,"completed":false,"completed_time":null,"images_urls":["https://source.unsplash.com/random/400x300/?img=1", "https://source.unsplash.com/random/400x300/?img=1", "https://picsum.photos/400/300"],"available_date":"2021-09-20T01:41:26Z"},
{"listing_id":109,"donor_id":138,"receiver_id":null,"type":"favor","title":"MX-3","description":"Proin leo odio, porttitor id, consequat in, consequat ut, nulla. Sed accumsan felis. Ut at dolor quis odio consequat varius.","zipcode":"75226","city":"Dallas","state":"TX","longitude":-96.7676,"latitude":32.7887,"completed":false,"completed_time":null,"images_urls":["https://source.unsplash.com/random/400x300/?img=1", "https://source.unsplash.com/random/400x300/?img=1", "https://picsum.photos/400/300"],"available_date":"2022-05-15T13:06:02Z"},
{"listing_id":110,"donor_id":185,"receiver_id":null,"type":"swap","title":"Tundra","description":"Fusce posuere felis sed lacus. Morbi sem mauris, laoreet ut, rhoncus aliquet, pulvinar sed, nisl. Nunc rhoncus dui vel sem.","zipcode":"77250","city":"Houston","state":"TX","longitude":-95.3629,"latitude":29.7629,"completed":false,"completed_time":null,"images_urls":["https://source.unsplash.com/random/400x300/?img=1", "https://source.unsplash.com/random/400x300/?img=1", "https://picsum.photos/400/300"],"available_date":"2022-04-27T04:03:11Z"},
{"listing_id":111,"donor_id":132,"receiver_id":null,"type":"swap","title":"SL-Class","description":"Duis consequat dui nec nisi volutpat eleifend. Donec ut dolor. Morbi vel lectus in quam fringilla rhoncus.","zipcode":"78778","city":"Austin","state":"TX","longitude":-97.7713,"latitude":30.3264,"completed":false,"completed_time":null,"images_urls":["https://source.unsplash.com/random/400x300/?img=1", "https://source.unsplash.com/random/400x300/?img=1", "https://picsum.photos/400/300"],"available_date":"2021-12-22T21:38:38Z"},
{"listing_id":112,"donor_id":148,"receiver_id":null,"type":"swap","title":"Altima","description":"Praesent blandit. Nam nulla. Integer pede justo, lacinia eget, tincidunt eget, tempus vel, pede.\n\nMorbi porttitor lorem id ligula. Suspendisse ornare consequat lectus. In est risus, auctor sed, tristique in, tempus sit amet, sem.","zipcode":"76310","city":"Wichita Falls","state":"TX","longitude":-98.5755,"latitude":33.8581,"completed":false,"completed_time":null,"images_urls":["https://source.unsplash.com/random/400x300/?img=1", "https://source.unsplash.com/random/400x300/?img=1", "https://picsum.photos/400/300"],"available_date":"2022-04-07T16:52:31Z"},
{"listing_id":113,"donor_id":172,"receiver_id":null,"type":"favor","title":"Forenza","description":"Donec diam neque, vestibulum eget, vulputate ut, ultrices vel, augue. Vestibulum ante ipsum primis in faucibus orci luctus et ultrices posuere cubilia Curae; Donec pharetra, magna vestibulum aliquet ultrices, erat tortor sollicitudin mi, sit amet lobortis sapien sapien non mi. Integer ac neque.\n\nDuis bibendum. Morbi non quam nec dui luctus rutrum. Nulla tellus.","zipcode":"88535","city":"El Paso","state":"TX","longitude":-106.3,"latitude":31.6948,"completed":false,"completed_time":null,"images_urls":["https://source.unsplash.com/random/400x300/?img=1", "https://source.unsplash.com/random/400x300/?img=1", "https://picsum.photos/400/300"],"available_date":"2021-05-17T02:58:18Z"},
{"listing_id":114,"donor_id":126,"receiver_id":null,"type":"favor","title":"Diamante","description":"Fusce posuere felis sed lacus. Morbi sem mauris, laoreet ut, rhoncus aliquet, pulvinar sed, nisl. Nunc rhoncus dui vel sem.","zipcode":"77060","city":"Houston","state":"TX","longitude":-95.3981,"latitude":29.9335,"completed":false,"completed_time":null,"images_urls":["https://source.unsplash.com/random/400x300/?img=1", "https://source.unsplash.com/random/400x300/?img=1", "https://picsum.photos/400/300"],"available_date":"2022-05-05T18:43:19Z"},
{"listing_id":115,"donor_id":189,"receiver_id":null,"type":"favor","title":"Sorento","description":"Nulla ut erat id mauris vulputate elementum. Nullam varius. Nulla facilisi.","zipcode":"77075","city":"Houston","state":"TX","longitude":-95.26,"latitude":29.6223,"completed":false,"completed_time":null,"images_urls":["https://source.unsplash.com/random/400x300/?img=1", "https://source.unsplash.com/random/400x300/?img=1", "https://picsum.photos/400/300"],"available_date":"2022-02-08T14:43:03Z"},
{"listing_id":116,"donor_id":185,"receiver_id":null,"type":"favor","title":"Cougar","description":"Quisque id justo sit amet sapien dignissim vestibulum. Vestibulum ante ipsum primis in faucibus orci luctus et ultrices posuere cubilia Curae; Nulla dapibus dolor vel est. Donec odio justo, sollicitudin ut, suscipit a, feugiat et, eros.\n\nVestibulum ac est lacinia nisi venenatis tristique. Fusce congue, diam id ornare imperdiet, sapien urna pretium nisl, ut volutpat sapien arcu sed augue. Aliquam erat volutpat.","zipcode":"78296","city":"San Antonio","state":"TX","longitude":-98.4616,"latitude":29.4375,"completed":false,"completed_time":null,"images_urls":["https://source.unsplash.com/random/400x300/?img=1", "https://source.unsplash.com/random/400x300/?img=1", "https://picsum.photos/400/300"],"available_date":"2022-01-12T18:35:59Z"},
{"listing_id":117,"donor_id":147,"receiver_id":null,"type":"swap","title":"Regal","description":"Sed ante. Vivamus tortor. Duis mattis egestas metus.","zipcode":"77255","city":"Houston","state":"TX","longitude":-95.4342,"latitude":29.834,"completed":false,"completed_time":null,"images_urls":["https://source.unsplash.com/random/400x300/?img=1", "https://source.unsplash.com/random/400x300/?img=1", "https://picsum.photos/400/300"],"available_date":"2021-08-22T08:41:47Z"},
{"listing_id":118,"donor_id":159,"receiver_id":null,"type":"swap","title":"Discovery Series II","description":"Duis consequat dui nec nisi volutpat eleifend. Donec ut dolor. Morbi vel lectus in quam fringilla rhoncus.","zipcode":"88558","city":"El Paso","state":"TX","longitude":-106.3,"latitude":31.6948,"completed":false,"completed_time":null,"images_urls":["https://source.unsplash.com/random/400x300/?img=1", "https://source.unsplash.com/random/400x300/?img=1", "https://picsum.photos/400/300"],"available_date":"2022-04-10T17:54:59Z"},
{"listing_id":119,"donor_id":156,"receiver_id":null,"type":"favor","title":"Taurus","description":"Fusce consequat. Nulla nisl. Nunc nisl.","zipcode":"88553","city":"El Paso","state":"TX","longitude":-106.3,"latitude":31.6948,"completed":false,"completed_time":null,"images_urls":["https://source.unsplash.com/random/400x300/?img=1", "https://source.unsplash.com/random/400x300/?img=1", "https://picsum.photos/400/300"],"available_date":"2022-02-02T03:40:24Z"},
{"listing_id":120,"donor_id":193,"receiver_id":null,"type":"swap","title":"Mustang","description":"Cras mi pede, malesuada in, imperdiet et, commodo vulputate, justo. In blandit ultrices enim. Lorem ipsum dolor sit amet, consectetuer adipiscing elit.\n\nProin interdum mauris non ligula pellentesque ultrices. Phasellus id sapien in sapien iaculis congue. Vivamus metus arcu, adipiscing molestie, hendrerit at, vulputate vitae, nisl.","zipcode":"75260","city":"Dallas","state":"TX","longitude":-96.7776,"latitude":32.7673,"completed":false,"completed_time":null,"images_urls":["https://source.unsplash.com/random/400x300/?img=1", "https://source.unsplash.com/random/400x300/?img=1", "https://picsum.photos/400/300"],"available_date":"2021-06-07T05:28:33Z"},
{"listing_id":121,"donor_id":152,"receiver_id":null,"type":"swap","title":"Pajero","description":"Nam ultrices, libero non mattis pulvinar, nulla pede ullamcorper augue, a suscipit nulla elit ac nulla. Sed vel enim sit amet nunc viverra dapibus. Nulla suscipit ligula in lacus.\n\nCurabitur at ipsum ac tellus semper interdum. Mauris ullamcorper purus sit amet nulla. Quisque arcu libero, rutrum ac, lobortis vel, dapibus at, diam.","zipcode":"75226","city":"Dallas","state":"TX","longitude":-96.7676,"latitude":32.7887,"completed":false,"completed_time":null,"images_urls":["https://source.unsplash.com/random/400x300/?img=1", "https://source.unsplash.com/random/400x300/?img=1", "https://picsum.photos/400/300"],"available_date":"2021-10-04T13:17:32Z"},
{"listing_id":122,"donor_id":168,"receiver_id":null,"type":"swap","title":"MX-3","description":"Cras mi pede, malesuada in, imperdiet et, commodo vulputate, justo. In blandit ultrices enim. Lorem ipsum dolor sit amet, consectetuer adipiscing elit.\n\nProin interdum mauris non ligula pellentesque ultrices. Phasellus id sapien in sapien iaculis congue. Vivamus metus arcu, adipiscing molestie, hendrerit at, vulputate vitae, nisl.","zipcode":"78405","city":"Corpus Christi","state":"TX","longitude":-97.4271,"latitude":27.7762,"completed":false,"completed_time":null,"images_urls":["https://source.unsplash.com/random/400x300/?img=1", "https://source.unsplash.com/random/400x300/?img=1", "https://picsum.photos/400/300"],"available_date":"2021-07-26T06:06:26Z"},
{"listing_id":123,"donor_id":138,"receiver_id":null,"type":"favor","title":"XC90","description":"Proin interdum mauris non ligula pellentesque ultrices. Phasellus id sapien in sapien iaculis congue. Vivamus metus arcu, adipiscing molestie, hendrerit at, vulputate vitae, nisl.\n\nAenean lectus. Pellentesque eget nunc. Donec quis orci eget orci vehicula condimentum.","zipcode":"78475","city":"Corpus Christi","state":"TX","longitude":-97.4632,"latitude":27.777,"completed":false,"completed_time":null,"images_urls":["https://source.unsplash.com/random/400x300/?img=1", "https://source.unsplash.com/random/400x300/?img=1", "https://picsum.photos/400/300"],"available_date":"2021-11-01T18:31:19Z"},
{"listing_id":124,"donor_id":135,"receiver_id":null,"type":"favor","title":"Integra","description":"In congue. Etiam justo. Etiam pretium iaculis justo.","zipcode":"78703","city":"Austin","state":"TX","longitude":-97.7648,"latitude":30.2907,"completed":false,"completed_time":null,"images_urls":["https://source.unsplash.com/random/400x300/?img=1", "https://source.unsplash.com/random/400x300/?img=1", "https://picsum.photos/400/300"],"available_date":"2021-08-08T10:31:46Z"},
{"listing_id":125,"donor_id":180,"receiver_id":null,"type":"favor","title":"9000","description":"Cras non velit nec nisi vulputate nonummy. Maecenas tincidunt lacus at velit. Vivamus vel nulla eget eros elementum pellentesque.\n\nQuisque porta volutpat erat. Quisque erat eros, viverra eget, congue eget, semper rutrum, nulla. Nunc purus.","zipcode":"79165","city":"Amarillo","state":"TX","longitude":-101.8951,"latitude":35.4015,"completed":false,"completed_time":null,"images_urls":["https://source.unsplash.com/random/400x300/?img=1", "https://source.unsplash.com/random/400x300/?img=1", "https://picsum.photos/400/300"],"available_date":"2021-10-08T20:43:04Z"},
{"listing_id":126,"donor_id":149,"receiver_id":null,"type":"favor","title":"M","description":"Fusce consequat. Nulla nisl. Nunc nisl.\n\nDuis bibendum, felis sed interdum venenatis, turpis enim blandit mi, in porttitor pede justo eu massa. Donec dapibus. Duis at velit eu est congue elementum.","zipcode":"77281","city":"Houston","state":"TX","longitude":-95.4342,"latitude":29.834,"completed":false,"completed_time":null,"images_urls":["https://source.unsplash.com/random/400x300/?img=1", "https://source.unsplash.com/random/400x300/?img=1", "https://picsum.photos/400/300"],"available_date":"2021-08-30T15:11:33Z"},
{"listing_id":127,"donor_id":154,"receiver_id":null,"type":"swap","title":"Esperante","description":"Sed ante. Vivamus tortor. Duis mattis egestas metus.","zipcode":"88519","city":"El Paso","state":"TX","longitude":-106.3,"latitude":31.6948,"completed":false,"completed_time":null,"images_urls":["https://source.unsplash.com/random/400x300/?img=1", "https://source.unsplash.com/random/400x300/?img=1", "https://picsum.photos/400/300"],"available_date":"2022-03-03T10:58:52Z"},
{"listing_id":128,"donor_id":116,"receiver_id":null,"type":"favor","title":"Town & Country","description":"Cum sociis natoque penatibus et magnis dis parturient montes, nascetur ridiculus mus. Vivamus vestibulum sagittis sapien. Cum sociis natoque penatibus et magnis dis parturient montes, nascetur ridiculus mus.\n\nEtiam vel augue. Vestibulum rutrum rutrum neque. Aenean auctor gravida sem.","zipcode":"88519","city":"El Paso","state":"TX","longitude":-106.3,"latitude":31.6948,"completed":false,"completed_time":null,"images_urls":["https://source.unsplash.com/random/400x300/?img=1", "https://source.unsplash.com/random/400x300/?img=1", "https://picsum.photos/400/300"],"available_date":"2021-06-06T12:25:31Z"},
{"listing_id":129,"donor_id":169,"receiver_id":null,"type":"favor","title":"F-Series","description":"Proin interdum mauris non ligula pellentesque ultrices. Phasellus id sapien in sapien iaculis congue. Vivamus metus arcu, adipiscing molestie, hendrerit at, vulputate vitae, nisl.\n\nAenean lectus. Pellentesque eget nunc. Donec quis orci eget orci vehicula condimentum.","zipcode":"75710","city":"Tyler","state":"TX","longitude":-95.3065,"latitude":32.3475,"completed":false,"completed_time":null,"images_urls":["https://source.unsplash.com/random/400x300/?img=1", "https://source.unsplash.com/random/400x300/?img=1", "https://picsum.photos/400/300"],"available_date":"2021-07-07T21:59:01Z"},
{"listing_id":130,"donor_id":169,"receiver_id":null,"type":"swap","title":"Quattro","description":"Fusce consequat. Nulla nisl. Nunc nisl.","zipcode":"88525","city":"El Paso","state":"TX","longitude":-106.3,"latitude":31.6948,"completed":false,"completed_time":null,"images_urls":["https://source.unsplash.com/random/400x300/?img=1", "https://source.unsplash.com/random/400x300/?img=1", "https://picsum.photos/400/300"],"available_date":"2021-08-12T08:19:02Z"},
{"listing_id":131,"donor_id":188,"receiver_id":null,"type":"favor","title":"Firefly","description":"Duis consequat dui nec nisi volutpat eleifend. Donec ut dolor. Morbi vel lectus in quam fringilla rhoncus.","zipcode":"76796","city":"Waco","state":"TX","longitude":-97.0823,"latitude":31.5915,"completed":false,"completed_time":null,"images_urls":["https://source.unsplash.com/random/400x300/?img=1", "https://source.unsplash.com/random/400x300/?img=1", "https://picsum.photos/400/300"],"available_date":"2021-07-20T11:27:12Z"},
{"listing_id":132,"donor_id":164,"receiver_id":null,"type":"swap","title":"Aspen","description":"Cras mi pede, malesuada in, imperdiet et, commodo vulputate, justo. In blandit ultrices enim. Lorem ipsum dolor sit amet, consectetuer adipiscing elit.\n\nProin interdum mauris non ligula pellentesque ultrices. Phasellus id sapien in sapien iaculis congue. Vivamus metus arcu, adipiscing molestie, hendrerit at, vulputate vitae, nisl.","zipcode":"77080","city":"Houston","state":"TX","longitude":-95.523,"latitude":29.8159,"completed":false,"completed_time":null,"images_urls":["https://source.unsplash.com/random/400x300/?img=1", "https://source.unsplash.com/random/400x300/?img=1", "https://picsum.photos/400/300"],"available_date":"2021-10-08T06:41:05Z"},
{"listing_id":133,"donor_id":114,"receiver_id":null,"type":"favor","title":"Silverado","description":"In quis justo. Maecenas rhoncus aliquam lacus. Morbi quis tortor id nulla ultrices aliquet.\n\nMaecenas leo odio, condimentum id, luctus nec, molestie sed, justo. Pellentesque viverra pede ac diam. Cras pellentesque volutpat dui.","zipcode":"77206","city":"Houston","state":"TX","longitude":-95.4342,"latitude":29.834,"completed":false,"completed_time":null,"images_urls":["https://source.unsplash.com/random/400x300/?img=1", "https://source.unsplash.com/random/400x300/?img=1", "https://picsum.photos/400/300"],"available_date":"2021-09-01T11:11:13Z"},
{"listing_id":134,"donor_id":161,"receiver_id":null,"type":"swap","title":"Range Rover","description":"Quisque id justo sit amet sapien dignissim vestibulum. Vestibulum ante ipsum primis in faucibus orci luctus et ultrices posuere cubilia Curae; Nulla dapibus dolor vel est. Donec odio justo, sollicitudin ut, suscipit a, feugiat et, eros.","zipcode":"77240","city":"Houston","state":"TX","longitude":-95.4342,"latitude":29.834,"completed":false,"completed_time":null,"images_urls":["https://source.unsplash.com/random/400x300/?img=1", "https://source.unsplash.com/random/400x300/?img=1", "https://picsum.photos/400/300"],"available_date":"2021-12-10T09:03:01Z"},
{"listing_id":135,"donor_id":111,"receiver_id":null,"type":"swap","title":"Hombre Space","description":"Quisque porta volutpat erat. Quisque erat eros, viverra eget, congue eget, semper rutrum, nulla. Nunc purus.\n\nPhasellus in felis. Donec semper sapien a libero. Nam dui.","zipcode":"76147","city":"Fort Worth","state":"TX","longitude":-97.2915,"latitude":32.7714,"completed":false,"completed_time":null,"images_urls":["https://source.unsplash.com/random/400x300/?img=1", "https://source.unsplash.com/random/400x300/?img=1", "https://picsum.photos/400/300"],"available_date":"2021-06-10T11:57:24Z"},
{"listing_id":136,"donor_id":110,"receiver_id":null,"type":"favor","title":"RX-8","description":"Sed sagittis. Nam congue, risus semper porta volutpat, quam pede lobortis ligula, sit amet eleifend pede libero quis orci. Nullam molestie nibh in lectus.\n\nPellentesque at nulla. Suspendisse potenti. Cras in purus eu magna vulputate luctus.","zipcode":"77228","city":"Houston","state":"TX","longitude":-95.4342,"latitude":29.834,"completed":false,"completed_time":null,"images_urls":["https://source.unsplash.com/random/400x300/?img=1", "https://source.unsplash.com/random/400x300/?img=1", "https://picsum.photos/400/300"],"available_date":"2021-08-23T03:34:36Z"},
{"listing_id":137,"donor_id":154,"receiver_id":null,"type":"swap","title":"Monte Carlo","description":"Fusce posuere felis sed lacus. Morbi sem mauris, laoreet ut, rhoncus aliquet, pulvinar sed, nisl. Nunc rhoncus dui vel sem.","zipcode":"77293","city":"Houston","state":"TX","longitude":-95.4342,"latitude":29.834,"completed":false,"completed_time":null,"images_urls":["https://source.unsplash.com/random/400x300/?img=1", "https://source.unsplash.com/random/400x300/?img=1", "https://picsum.photos/400/300"],"available_date":"2021-05-20T23:20:56Z"},
{"listing_id":138,"donor_id":134,"receiver_id":null,"type":"swap","title":"Bravada","description":"Vestibulum ac est lacinia nisi venenatis tristique. Fusce congue, diam id ornare imperdiet, sapien urna pretium nisl, ut volutpat sapien arcu sed augue. Aliquam erat volutpat.","zipcode":"76016","city":"Arlington","state":"TX","longitude":-97.1905,"latitude":32.6889,"completed":false,"completed_time":null,"images_urls":["https://source.unsplash.com/random/400x300/?img=1", "https://source.unsplash.com/random/400x300/?img=1", "https://picsum.photos/400/300"],"available_date":"2021-05-18T14:08:03Z"},
{"listing_id":139,"donor_id":192,"receiver_id":null,"type":"swap","title":"Range Rover","description":"Morbi non lectus. Aliquam sit amet diam in magna bibendum imperdiet. Nullam orci pede, venenatis non, sodales sed, tincidunt eu, felis.","zipcode":"75074","city":"Plano","state":"TX","longitude":-96.6777,"latitude":33.0277,"completed":false,"completed_time":null,"images_urls":["https://source.unsplash.com/random/400x300/?img=1", "https://source.unsplash.com/random/400x300/?img=1", "https://picsum.photos/400/300"],"available_date":"2022-01-08T21:18:43Z"},
{"listing_id":140,"donor_id":186,"receiver_id":null,"type":"swap","title":"Expedition","description":"Duis bibendum, felis sed interdum venenatis, turpis enim blandit mi, in porttitor pede justo eu massa. Donec dapibus. Duis at velit eu est congue elementum.\n\nIn hac habitasse platea dictumst. Morbi vestibulum, velit id pretium iaculis, diam erat fermentum justo, nec condimentum neque sapien placerat ante. Nulla justo.","zipcode":"75216","city":"Dallas","state":"TX","longitude":-96.7955,"latitude":32.7086,"completed":false,"completed_time":null,"images_urls":["https://source.unsplash.com/random/400x300/?img=1", "https://source.unsplash.com/random/400x300/?img=1", "https://picsum.photos/400/300"],"available_date":"2021-12-25T16:18:13Z"},
{"listing_id":141,"donor_id":116,"receiver_id":null,"type":"swap","title":"XL7","description":"Duis bibendum. Morbi non quam nec dui luctus rutrum. Nulla tellus.\n\nIn sagittis dui vel nisl. Duis ac nibh. Fusce lacus purus, aliquet at, feugiat non, pretium quis, lectus.","zipcode":"79911","city":"El Paso","state":"TX","longitude":-106.5426,"latitude":31.8925,"completed":false,"completed_time":null,"images_urls":["https://source.unsplash.com/random/400x300/?img=1", "https://source.unsplash.com/random/400x300/?img=1", "https://picsum.photos/400/300"],"available_date":"2021-08-30T04:22:22Z"},
{"listing_id":142,"donor_id":157,"receiver_id":null,"type":"swap","title":"Liberty","description":"Quisque porta volutpat erat. Quisque erat eros, viverra eget, congue eget, semper rutrum, nulla. Nunc purus.","zipcode":"79769","city":"Odessa","state":"TX","longitude":-102.567,"latitude":31.7466,"completed":false,"completed_time":null,"images_urls":["https://source.unsplash.com/random/400x300/?img=1", "https://source.unsplash.com/random/400x300/?img=1", "https://picsum.photos/400/300"],"available_date":"2022-03-07T11:18:23Z"},
{"listing_id":143,"donor_id":127,"receiver_id":null,"type":"swap","title":"SLK-Class","description":"In quis justo. Maecenas rhoncus aliquam lacus. Morbi quis tortor id nulla ultrices aliquet.\n\nMaecenas leo odio, condimentum id, luctus nec, molestie sed, justo. Pellentesque viverra pede ac diam. Cras pellentesque volutpat dui.","zipcode":"76004","city":"Arlington","state":"TX","longitude":-97.2915,"latitude":32.7714,"completed":false,"completed_time":null,"images_urls":["https://source.unsplash.com/random/400x300/?img=1", "https://source.unsplash.com/random/400x300/?img=1", "https://picsum.photos/400/300"],"available_date":"2021-10-13T18:08:03Z"},
{"listing_id":144,"donor_id":110,"receiver_id":null,"type":"favor","title":"Eclipse","description":"Sed sagittis. Nam congue, risus semper porta volutpat, quam pede lobortis ligula, sit amet eleifend pede libero quis orci. Nullam molestie nibh in lectus.","zipcode":"75372","city":"Dallas","state":"TX","longitude":-96.7776,"latitude":32.7673,"completed":false,"completed_time":null,"images_urls":["https://source.unsplash.com/random/400x300/?img=1", "https://source.unsplash.com/random/400x300/?img=1", "https://picsum.photos/400/300"],"available_date":"2022-05-26T16:02:33Z"},
{"listing_id":145,"donor_id":180,"receiver_id":null,"type":"favor","title":"TL","description":"Proin eu mi. Nulla ac enim. In tempor, turpis nec euismod scelerisque, quam turpis adipiscing lorem, vitae mattis nibh ligula nec sem.\n\nDuis aliquam convallis nunc. Proin at turpis a pede posuere nonummy. Integer non velit.","zipcode":"78278","city":"San Antonio","state":"TX","longitude":-98.4616,"latitude":29.4375,"completed":false,"completed_time":null,"images_urls":["https://source.unsplash.com/random/400x300/?img=1", "https://source.unsplash.com/random/400x300/?img=1", "https://picsum.photos/400/300"],"available_date":"2021-08-11T16:16:04Z"},
{"listing_id":146,"donor_id":194,"receiver_id":null,"type":"favor","title":"Legacy","description":"Nullam sit amet turpis elementum ligula vehicula consequat. Morbi a ipsum. Integer a nibh.\n\nIn quis justo. Maecenas rhoncus aliquam lacus. Morbi quis tortor id nulla ultrices aliquet.","zipcode":"77055","city":"Houston","state":"TX","longitude":-95.4958,"latitude":29.7971,"completed":false,"completed_time":null,"images_urls":["https://source.unsplash.com/random/400x300/?img=1", "https://source.unsplash.com/random/400x300/?img=1", "https://picsum.photos/400/300"],"available_date":"2021-11-01T08:17:37Z"},
{"listing_id":147,"donor_id":160,"receiver_id":null,"type":"favor","title":"Tacoma","description":"Proin eu mi. Nulla ac enim. In tempor, turpis nec euismod scelerisque, quam turpis adipiscing lorem, vitae mattis nibh ligula nec sem.","zipcode":"77085","city":"Houston","state":"TX","longitude":-95.4819,"latitude":29.6218,"completed":false,"completed_time":null,"images_urls":["https://source.unsplash.com/random/400x300/?img=1", "https://source.unsplash.com/random/400x300/?img=1", "https://picsum.photos/400/300"],"available_date":"2021-11-10T23:10:28Z"},
{"listing_id":148,"donor_id":183,"receiver_id":null,"type":"favor","title":"Topaz","description":"In sagittis dui vel nisl. Duis ac nibh. Fusce lacus purus, aliquet at, feugiat non, pretium quis, lectus.\n\nSuspendisse potenti. In eleifend quam a odio. In hac habitasse platea dictumst.","zipcode":"78410","city":"Corpus Christi","state":"TX","longitude":-97.596,"latitude":27.8458,"completed":false,"completed_time":null,"images_urls":["https://source.unsplash.com/random/400x300/?img=1", "https://source.unsplash.com/random/400x300/?img=1", "https://picsum.photos/400/300"],"available_date":"2021-12-01T02:27:02Z"},
{"listing_id":149,"donor_id":132,"receiver_id":null,"type":"swap","title":"Aviator","description":"Pellentesque at nulla. Suspendisse potenti. Cras in purus eu magna vulputate luctus.","zipcode":"79934","city":"El Paso","state":"TX","longitude":-106.4073,"latitude":31.9386,"completed":false,"completed_time":null,"images_urls":["https://source.unsplash.com/random/400x300/?img=1", "https://source.unsplash.com/random/400x300/?img=1", "https://picsum.photos/400/300"],"available_date":"2021-07-18T13:37:54Z"},
{"listing_id":150,"donor_id":103,"receiver_id":null,"type":"swap","title":"Sable","description":"Vestibulum ac est lacinia nisi venenatis tristique. Fusce congue, diam id ornare imperdiet, sapien urna pretium nisl, ut volutpat sapien arcu sed augue. Aliquam erat volutpat.","zipcode":"75705","city":"Tyler","state":"TX","longitude":-95.1252,"latitude":32.3766,"completed":false,"completed_time":null,"images_urls":["https://source.unsplash.com/random/400x300/?img=1", "https://source.unsplash.com/random/400x300/?img=1", "https://picsum.photos/400/300"],"available_date":"2022-03-29T05:14:59Z"},
{"listing_id":151,"donor_id":130,"receiver_id":null,"type":"favor","title":"Mustang","description":"Integer tincidunt ante vel ipsum. Praesent blandit lacinia erat. Vestibulum sed magna at nunc commodo placerat.\n\nPraesent blandit. Nam nulla. Integer pede justo, lacinia eget, tincidunt eget, tempus vel, pede.","zipcode":"79699","city":"Abilene","state":"TX","longitude":-99.7117,"latitude":32.4665,"completed":false,"completed_time":null,"images_urls":["https://source.unsplash.com/random/400x300/?img=1", "https://source.unsplash.com/random/400x300/?img=1", "https://picsum.photos/400/300"],"available_date":"2021-06-20T21:49:44Z"},
{"listing_id":152,"donor_id":108,"receiver_id":null,"type":"swap","title":"400E","description":"Pellentesque at nulla. Suspendisse potenti. Cras in purus eu magna vulputate luctus.\n\nCum sociis natoque penatibus et magnis dis parturient montes, nascetur ridiculus mus. Vivamus vestibulum sagittis sapien. Cum sociis natoque penatibus et magnis dis parturient montes, nascetur ridiculus mus.","zipcode":"78230","city":"San Antonio","state":"TX","longitude":-98.5521,"latitude":29.5407,"completed":false,"completed_time":null,"images_urls":["https://source.unsplash.com/random/400x300/?img=1", "https://source.unsplash.com/random/400x300/?img=1", "https://picsum.photos/400/300"],"available_date":"2021-07-31T10:19:31Z"},
{"listing_id":153,"donor_id":149,"receiver_id":null,"type":"swap","title":"TSX","description":"Maecenas ut massa quis augue luctus tincidunt. Nulla mollis molestie lorem. Quisque ut erat.\n\nCurabitur gravida nisi at nibh. In hac habitasse platea dictumst. Aliquam augue quam, sollicitudin vitae, consectetuer eget, rutrum at, lorem.","zipcode":"78225","city":"San Antonio","state":"TX","longitude":-98.5245,"latitude":29.3875,"completed":false,"completed_time":null,"images_urls":["https://source.unsplash.com/random/400x300/?img=1", "https://source.unsplash.com/random/400x300/?img=1", "https://picsum.photos/400/300"],"available_date":"2021-07-08T11:12:44Z"},
{"listing_id":154,"donor_id":144,"receiver_id":null,"type":"swap","title":"S10 Blazer","description":"Nullam porttitor lacus at turpis. Donec posuere metus vitae ipsum. Aliquam non mauris.\n\nMorbi non lectus. Aliquam sit amet diam in magna bibendum imperdiet. Nullam orci pede, venenatis non, sodales sed, tincidunt eu, felis.","zipcode":"77299","city":"Houston","state":"TX","longitude":-95.4342,"latitude":29.834,"completed":false,"completed_time":null,"images_urls":["https://source.unsplash.com/random/400x300/?img=1", "https://source.unsplash.com/random/400x300/?img=1", "https://picsum.photos/400/300"],"available_date":"2022-02-10T17:57:38Z"},
{"listing_id":155,"donor_id":144,"receiver_id":null,"type":"swap","title":"G37","description":"Suspendisse potenti. In eleifend quam a odio. In hac habitasse platea dictumst.","zipcode":"76004","city":"Arlington","state":"TX","longitude":-97.2915,"latitude":32.7714,"completed":false,"completed_time":null,"images_urls":["https://source.unsplash.com/random/400x300/?img=1", "https://source.unsplash.com/random/400x300/?img=1", "https://picsum.photos/400/300"],"available_date":"2021-07-12T01:10:51Z"},
{"listing_id":156,"donor_id":135,"receiver_id":null,"type":"favor","title":"Camaro","description":"Curabitur gravida nisi at nibh. In hac habitasse platea dictumst. Aliquam augue quam, sollicitudin vitae, consectetuer eget, rutrum at, lorem.\n\nInteger tincidunt ante vel ipsum. Praesent blandit lacinia erat. Vestibulum sed magna at nunc commodo placerat.","zipcode":"77010","city":"Houston","state":"TX","longitude":-95.3609,"latitude":29.7543,"completed":false,"completed_time":null,"images_urls":["https://source.unsplash.com/random/400x300/?img=1", "https://source.unsplash.com/random/400x300/?img=1", "https://picsum.photos/400/300"],"available_date":"2022-03-22T16:54:48Z"},
{"listing_id":157,"donor_id":121,"receiver_id":null,"type":"favor","title":"Spyder","description":"Vestibulum quam sapien, varius ut, blandit non, interdum in, ante. Vestibulum ante ipsum primis in faucibus orci luctus et ultrices posuere cubilia Curae; Duis faucibus accumsan odio. Curabitur convallis.\n\nDuis consequat dui nec nisi volutpat eleifend. Donec ut dolor. Morbi vel lectus in quam fringilla rhoncus.","zipcode":"77095","city":"Houston","state":"TX","longitude":-95.6481,"latitude":29.8941,"completed":false,"completed_time":null,"images_urls":["https://source.unsplash.com/random/400x300/?img=1", "https://source.unsplash.com/random/400x300/?img=1", "https://picsum.photos/400/300"],"available_date":"2022-04-02T16:59:20Z"},
{"listing_id":158,"donor_id":197,"receiver_id":null,"type":"favor","title":"Town & Country","description":"Nullam porttitor lacus at turpis. Donec posuere metus vitae ipsum. Aliquam non mauris.","zipcode":"76110","city":"Fort Worth","state":"TX","longitude":-97.3375,"latitude":32.7065,"completed":false,"completed_time":null,"images_urls":["https://source.unsplash.com/random/400x300/?img=1", "https://source.unsplash.com/random/400x300/?img=1", "https://picsum.photos/400/300"],"available_date":"2022-04-03T15:00:43Z"},
{"listing_id":159,"donor_id":106,"receiver_id":null,"type":"swap","title":"RX Hybrid","description":"Proin leo odio, porttitor id, consequat in, consequat ut, nulla. Sed accumsan felis. Ut at dolor quis odio consequat varius.","zipcode":"88589","city":"El Paso","state":"TX","longitude":-106.3,"latitude":31.6948,"completed":false,"completed_time":null,"images_urls":["https://source.unsplash.com/random/400x300/?img=1", "https://source.unsplash.com/random/400x300/?img=1", "https://picsum.photos/400/300"],"available_date":"2021-11-30T01:25:08Z"},
{"listing_id":160,"donor_id":119,"receiver_id":null,"type":"favor","title":"Accord","description":"Nam ultrices, libero non mattis pulvinar, nulla pede ullamcorper augue, a suscipit nulla elit ac nulla. Sed vel enim sit amet nunc viverra dapibus. Nulla suscipit ligula in lacus.\n\nCurabitur at ipsum ac tellus semper interdum. Mauris ullamcorper purus sit amet nulla. Quisque arcu libero, rutrum ac, lobortis vel, dapibus at, diam.","zipcode":"78044","city":"Laredo","state":"TX","longitude":-99.4819,"latitude":27.3637,"completed":false,"completed_time":null,"images_urls":["https://source.unsplash.com/random/400x300/?img=1", "https://source.unsplash.com/random/400x300/?img=1", "https://picsum.photos/400/300"],"available_date":"2021-07-09T21:34:17Z"},
{"listing_id":161,"donor_id":153,"receiver_id":null,"type":"favor","title":"Suburban 2500","description":"Nam ultrices, libero non mattis pulvinar, nulla pede ullamcorper augue, a suscipit nulla elit ac nulla. Sed vel enim sit amet nunc viverra dapibus. Nulla suscipit ligula in lacus.\n\nCurabitur at ipsum ac tellus semper interdum. Mauris ullamcorper purus sit amet nulla. Quisque arcu libero, rutrum ac, lobortis vel, dapibus at, diam.","zipcode":"79916","city":"El Paso","state":"TX","longitude":-106.2879,"latitude":31.7444,"completed":false,"completed_time":null,"images_urls":["https://source.unsplash.com/random/400x300/?img=1", "https://source.unsplash.com/random/400x300/?img=1", "https://picsum.photos/400/300"],"available_date":"2022-01-12T14:30:05Z"},
{"listing_id":162,"donor_id":194,"receiver_id":null,"type":"favor","title":"C-Class","description":"In hac habitasse platea dictumst. Etiam faucibus cursus urna. Ut tellus.\n\nNulla ut erat id mauris vulputate elementum. Nullam varius. Nulla facilisi.","zipcode":"78737","city":"Austin","state":"TX","longitude":-97.9427,"latitude":30.2107,"completed":false,"completed_time":null,"images_urls":["https://source.unsplash.com/random/400x300/?img=1", "https://source.unsplash.com/random/400x300/?img=1", "https://picsum.photos/400/300"],"available_date":"2021-12-25T16:34:43Z"},
{"listing_id":163,"donor_id":183,"receiver_id":null,"type":"swap","title":"Tempo","description":"Cras non velit nec nisi vulputate nonummy. Maecenas tincidunt lacus at velit. Vivamus vel nulla eget eros elementum pellentesque.","zipcode":"78764","city":"Austin","state":"TX","longitude":-97.6595,"latitude":30.4455,"completed":false,"completed_time":null,"images_urls":["https://source.unsplash.com/random/400x300/?img=1", "https://source.unsplash.com/random/400x300/?img=1", "https://picsum.photos/400/300"],"available_date":"2022-05-13T20:12:53Z"},
{"listing_id":164,"donor_id":145,"receiver_id":null,"type":"favor","title":"S-Class","description":"Fusce consequat. Nulla nisl. Nunc nisl.","zipcode":"77025","city":"Houston","state":"TX","longitude":-95.4341,"latitude":29.6889,"completed":false,"completed_time":null,"images_urls":["https://source.unsplash.com/random/400x300/?img=1", "https://source.unsplash.com/random/400x300/?img=1", "https://picsum.photos/400/300"],"available_date":"2021-11-08T10:26:57Z"},
{"listing_id":165,"donor_id":103,"receiver_id":null,"type":"favor","title":"Defender","description":"Quisque id justo sit amet sapien dignissim vestibulum. Vestibulum ante ipsum primis in faucibus orci luctus et ultrices posuere cubilia Curae; Nulla dapibus dolor vel est. Donec odio justo, sollicitudin ut, suscipit a, feugiat et, eros.\n\nVestibulum ac est lacinia nisi venenatis tristique. Fusce congue, diam id ornare imperdiet, sapien urna pretium nisl, ut volutpat sapien arcu sed augue. Aliquam erat volutpat.","zipcode":"79916","city":"El Paso","state":"TX","longitude":-106.2879,"latitude":31.7444,"completed":false,"completed_time":null,"images_urls":["https://source.unsplash.com/random/400x300/?img=1", "https://source.unsplash.com/random/400x300/?img=1", "https://picsum.photos/400/300"],"available_date":"2021-10-31T10:55:33Z"},
{"listing_id":166,"donor_id":199,"receiver_id":null,"type":"favor","title":"LX","description":"Cum sociis natoque penatibus et magnis dis parturient montes, nascetur ridiculus mus. Vivamus vestibulum sagittis sapien. Cum sociis natoque penatibus et magnis dis parturient montes, nascetur ridiculus mus.\n\nEtiam vel augue. Vestibulum rutrum rutrum neque. Aenean auctor gravida sem.","zipcode":"78759","city":"Austin","state":"TX","longitude":-97.7526,"latitude":30.4036,"completed":false,"completed_time":null,"images_urls":["https://source.unsplash.com/random/400x300/?img=1", "https://source.unsplash.com/random/400x300/?img=1", "https://picsum.photos/400/300"],"available_date":"2021-07-19T01:32:45Z"},
{"listing_id":167,"donor_id":184,"receiver_id":null,"type":"swap","title":"Yukon","description":"Cras mi pede, malesuada in, imperdiet et, commodo vulputate, justo. In blandit ultrices enim. Lorem ipsum dolor sit amet, consectetuer adipiscing elit.","zipcode":"75799","city":"Tyler","state":"TX","longitude":-95.2899,"latitude":32.4112,"completed":false,"completed_time":null,"images_urls":["https://source.unsplash.com/random/400x300/?img=1", "https://source.unsplash.com/random/400x300/?img=1", "https://picsum.photos/400/300"],"available_date":"2021-12-03T18:27:31Z"},
{"listing_id":168,"donor_id":142,"receiver_id":null,"type":"favor","title":"Bronco","description":"Sed ante. Vivamus tortor. Duis mattis egestas metus.","zipcode":"79994","city":"El Paso","state":"TX","longitude":-106.3,"latitude":31.6948,"completed":false,"completed_time":null,"images_urls":["https://source.unsplash.com/random/400x300/?img=1", "https://source.unsplash.com/random/400x300/?img=1", "https://picsum.photos/400/300"],"available_date":"2022-03-24T15:44:07Z"},
{"listing_id":169,"donor_id":106,"receiver_id":null,"type":"favor","title":"S60","description":"Proin leo odio, porttitor id, consequat in, consequat ut, nulla. Sed accumsan felis. Ut at dolor quis odio consequat varius.","zipcode":"78749","city":"Austin","state":"TX","longitude":-97.8508,"latitude":30.2166,"completed":false,"completed_time":null,"images_urls":["https://source.unsplash.com/random/400x300/?img=1", "https://source.unsplash.com/random/400x300/?img=1", "https://picsum.photos/400/300"],"available_date":"2022-02-18T11:02:12Z"},
{"listing_id":170,"donor_id":183,"receiver_id":null,"type":"swap","title":"A5","description":"Etiam vel augue. Vestibulum rutrum rutrum neque. Aenean auctor gravida sem.","zipcode":"77010","city":"Houston","state":"TX","longitude":-95.3609,"latitude":29.7543,"completed":false,"completed_time":null,"images_urls":["https://source.unsplash.com/random/400x300/?img=1", "https://source.unsplash.com/random/400x300/?img=1", "https://picsum.photos/400/300"],"available_date":"2022-05-04T23:28:07Z"},
{"listing_id":171,"donor_id":113,"receiver_id":null,"type":"swap","title":"Sierra 1500","description":"Curabitur gravida nisi at nibh. In hac habitasse platea dictumst. Aliquam augue quam, sollicitudin vitae, consectetuer eget, rutrum at, lorem.","zipcode":"78255","city":"San Antonio","state":"TX","longitude":-98.6873,"latitude":29.6701,"completed":false,"completed_time":null,"images_urls":["https://source.unsplash.com/random/400x300/?img=1", "https://source.unsplash.com/random/400x300/?img=1", "https://picsum.photos/400/300"],"available_date":"2021-07-15T14:26:57Z"},
{"listing_id":172,"donor_id":120,"receiver_id":null,"type":"swap","title":"Mazda6","description":"Curabitur in libero ut massa volutpat convallis. Morbi odio odio, elementum eu, interdum eu, tincidunt in, leo. Maecenas pulvinar lobortis est.","zipcode":"77223","city":"Houston","state":"TX","longitude":-95.4342,"latitude":29.834,"completed":false,"completed_time":null,"images_urls":["https://source.unsplash.com/random/400x300/?img=1", "https://source.unsplash.com/random/400x300/?img=1", "https://picsum.photos/400/300"],"available_date":"2021-11-17T03:46:37Z"},
{"listing_id":173,"donor_id":140,"receiver_id":null,"type":"swap","title":"Eurovan","description":"Nullam sit amet turpis elementum ligula vehicula consequat. Morbi a ipsum. Integer a nibh.\n\nIn quis justo. Maecenas rhoncus aliquam lacus. Morbi quis tortor id nulla ultrices aliquet.","zipcode":"76205","city":"Denton","state":"TX","longitude":-97.1282,"latitude":33.1903,"completed":false,"completed_time":null,"images_urls":["https://source.unsplash.com/random/400x300/?img=1", "https://source.unsplash.com/random/400x300/?img=1", "https://picsum.photos/400/300"],"available_date":"2022-01-08T04:38:08Z"},
{"listing_id":174,"donor_id":145,"receiver_id":null,"type":"favor","title":"FX","description":"Morbi porttitor lorem id ligula. Suspendisse ornare consequat lectus. In est risus, auctor sed, tristique in, tempus sit amet, sem.\n\nFusce consequat. Nulla nisl. Nunc nisl.","zipcode":"88541","city":"El Paso","state":"TX","longitude":-106.3,"latitude":31.6948,"completed":false,"completed_time":null,"images_urls":["https://source.unsplash.com/random/400x300/?img=1", "https://source.unsplash.com/random/400x300/?img=1", "https://picsum.photos/400/300"],"available_date":"2021-08-13T09:04:47Z"},
{"listing_id":175,"donor_id":199,"receiver_id":null,"type":"swap","title":"Sienna","description":"In sagittis dui vel nisl. Duis ac nibh. Fusce lacus purus, aliquet at, feugiat non, pretium quis, lectus.","zipcode":"78715","city":"Austin","state":"TX","longitude":-97.4865,"latitude":30.4501,"completed":false,"completed_time":null,"images_urls":["https://source.unsplash.com/random/400x300/?img=1", "https://source.unsplash.com/random/400x300/?img=1", "https://picsum.photos/400/300"],"available_date":"2022-01-12T01:14:22Z"},
{"listing_id":176,"donor_id":158,"receiver_id":null,"type":"swap","title":"645","description":"Sed sagittis. Nam congue, risus semper porta volutpat, quam pede lobortis ligula, sit amet eleifend pede libero quis orci. Nullam molestie nibh in lectus.","zipcode":"76178","city":"Fort Worth","state":"TX","longitude":-97.2915,"latitude":32.7714,"completed":false,"completed_time":null,"images_urls":["https://source.unsplash.com/random/400x300/?img=1", "https://source.unsplash.com/random/400x300/?img=1", "https://picsum.photos/400/300"],"available_date":"2022-03-09T18:33:27Z"},
{"listing_id":177,"donor_id":126,"receiver_id":null,"type":"favor","title":"S6","description":"Suspendisse potenti. In eleifend quam a odio. In hac habitasse platea dictumst.","zipcode":"77713","city":"Beaumont","state":"TX","longitude":-94.2607,"latitude":30.085,"completed":false,"completed_time":null,"images_urls":["https://source.unsplash.com/random/400x300/?img=1", "https://source.unsplash.com/random/400x300/?img=1", "https://picsum.photos/400/300"],"available_date":"2022-03-19T22:50:26Z"},
{"listing_id":178,"donor_id":127,"receiver_id":null,"type":"favor","title":"Veracruz","description":"Duis bibendum, felis sed interdum venenatis, turpis enim blandit mi, in porttitor pede justo eu massa. Donec dapibus. Duis at velit eu est congue elementum.\n\nIn hac habitasse platea dictumst. Morbi vestibulum, velit id pretium iaculis, diam erat fermentum justo, nec condimentum neque sapien placerat ante. Nulla justo.","zipcode":"79994","city":"El Paso","state":"TX","longitude":-106.3,"latitude":31.6948,"completed":false,"completed_time":null,"images_urls":["https://source.unsplash.com/random/400x300/?img=1", "https://source.unsplash.com/random/400x300/?img=1", "https://picsum.photos/400/300"],"available_date":"2021-10-25T01:00:29Z"},
{"listing_id":179,"donor_id":122,"receiver_id":null,"type":"favor","title":"S40","description":"In hac habitasse platea dictumst. Etiam faucibus cursus urna. Ut tellus.","zipcode":"78210","city":"San Antonio","state":"TX","longitude":-98.4658,"latitude":29.3977,"completed":false,"completed_time":null,"images_urls":["https://source.unsplash.com/random/400x300/?img=1", "https://source.unsplash.com/random/400x300/?img=1", "https://picsum.photos/400/300"],"available_date":"2021-08-08T04:31:23Z"},
{"listing_id":180,"donor_id":122,"receiver_id":null,"type":"swap","title":"Tercel","description":"Phasellus sit amet erat. Nulla tempus. Vivamus in felis eu sapien cursus vestibulum.\n\nProin eu mi. Nulla ac enim. In tempor, turpis nec euismod scelerisque, quam turpis adipiscing lorem, vitae mattis nibh ligula nec sem.","zipcode":"78465","city":"Corpus Christi","state":"TX","longitude":-97.4632,"latitude":27.777,"completed":false,"completed_time":null,"images_urls":["https://source.unsplash.com/random/400x300/?img=1", "https://source.unsplash.com/random/400x300/?img=1", "https://picsum.photos/400/300"],"available_date":"2022-04-13T22:28:46Z"},
{"listing_id":181,"donor_id":104,"receiver_id":null,"type":"favor","title":"MDX","description":"Cras non velit nec nisi vulputate nonummy. Maecenas tincidunt lacus at velit. Vivamus vel nulla eget eros elementum pellentesque.","zipcode":"75372","city":"Dallas","state":"TX","longitude":-96.7776,"latitude":32.7673,"completed":false,"completed_time":null,"images_urls":["https://source.unsplash.com/random/400x300/?img=1", "https://source.unsplash.com/random/400x300/?img=1", "https://picsum.photos/400/300"],"available_date":"2021-08-31T18:20:03Z"},
{"listing_id":182,"donor_id":119,"receiver_id":null,"type":"favor","title":"5 Series","description":"Aenean lectus. Pellentesque eget nunc. Donec quis orci eget orci vehicula condimentum.","zipcode":"79955","city":"El Paso","state":"TX","longitude":-106.3,"latitude":31.6948,"completed":false,"completed_time":null,"images_urls":["https://source.unsplash.com/random/400x300/?img=1", "https://source.unsplash.com/random/400x300/?img=1", "https://picsum.photos/400/300"],"available_date":"2022-05-27T18:41:21Z"},
{"listing_id":183,"donor_id":127,"receiver_id":null,"type":"swap","title":"Swift","description":"Curabitur gravida nisi at nibh. In hac habitasse platea dictumst. Aliquam augue quam, sollicitudin vitae, consectetuer eget, rutrum at, lorem.","zipcode":"88574","city":"El Paso","state":"TX","longitude":-106.3,"latitude":31.6948,"completed":false,"completed_time":null,"images_urls":["https://source.unsplash.com/random/400x300/?img=1", "https://source.unsplash.com/random/400x300/?img=1", "https://picsum.photos/400/300"],"available_date":"2021-05-20T18:41:32Z"},
{"listing_id":184,"donor_id":156,"receiver_id":null,"type":"favor","title":"Cultus","description":"Nullam sit amet turpis elementum ligula vehicula consequat. Morbi a ipsum. Integer a nibh.","zipcode":"77075","city":"Houston","state":"TX","longitude":-95.26,"latitude":29.6223,"completed":false,"completed_time":null,"images_urls":["https://source.unsplash.com/random/400x300/?img=1", "https://source.unsplash.com/random/400x300/?img=1", "https://picsum.photos/400/300"],"available_date":"2021-11-13T20:35:42Z"},
{"listing_id":185,"donor_id":186,"receiver_id":null,"type":"swap","title":"Bronco","description":"In sagittis dui vel nisl. Duis ac nibh. Fusce lacus purus, aliquet at, feugiat non, pretium quis, lectus.","zipcode":"78470","city":"Corpus Christi","state":"TX","longitude":-97.4632,"latitude":27.777,"completed":false,"completed_time":null,"images_urls":["https://source.unsplash.com/random/400x300/?img=1", "https://source.unsplash.com/random/400x300/?img=1", "https://picsum.photos/400/300"],"available_date":"2021-05-28T15:55:47Z"},
{"listing_id":186,"donor_id":122,"receiver_id":null,"type":"swap","title":"GTO","description":"Nulla ut erat id mauris vulputate elementum. Nullam varius. Nulla facilisi.\n\nCras non velit nec nisi vulputate nonummy. Maecenas tincidunt lacus at velit. Vivamus vel nulla eget eros elementum pellentesque.","zipcode":"79605","city":"Abilene","state":"TX","longitude":-99.7724,"latitude":32.432,"completed":false,"completed_time":null,"images_urls":["https://source.unsplash.com/random/400x300/?img=1", "https://source.unsplash.com/random/400x300/?img=1", "https://picsum.photos/400/300"],"available_date":"2021-07-13T17:21:36Z"},
{"listing_id":187,"donor_id":118,"receiver_id":null,"type":"swap","title":"SRX","description":"Suspendisse potenti. In eleifend quam a odio. In hac habitasse platea dictumst.\n\nMaecenas ut massa quis augue luctus tincidunt. Nulla mollis molestie lorem. Quisque ut erat.","zipcode":"75367","city":"Dallas","state":"TX","longitude":-96.7776,"latitude":32.7673,"completed":false,"completed_time":null,"images_urls":["https://source.unsplash.com/random/400x300/?img=1", "https://source.unsplash.com/random/400x300/?img=1", "https://picsum.photos/400/300"],"available_date":"2021-09-01T14:22:39Z"},
{"listing_id":188,"donor_id":130,"receiver_id":null,"type":"favor","title":"Forester","description":"Quisque id justo sit amet sapien dignissim vestibulum. Vestibulum ante ipsum primis in faucibus orci luctus et ultrices posuere cubilia Curae; Nulla dapibus dolor vel est. Donec odio justo, sollicitudin ut, suscipit a, feugiat et, eros.\n\nVestibulum ac est lacinia nisi venenatis tristique. Fusce congue, diam id ornare imperdiet, sapien urna pretium nisl, ut volutpat sapien arcu sed augue. Aliquam erat volutpat.","zipcode":"88525","city":"El Paso","state":"TX","longitude":-106.3,"latitude":31.6948,"completed":false,"completed_time":null,"images_urls":["https://source.unsplash.com/random/400x300/?img=1", "https://source.unsplash.com/random/400x300/?img=1", "https://picsum.photos/400/300"],"available_date":"2021-06-29T21:19:05Z"},
{"listing_id":189,"donor_id":179,"receiver_id":null,"type":"swap","title":"Cooper","description":"Phasellus in felis. Donec semper sapien a libero. Nam dui.","zipcode":"78703","city":"Austin","state":"TX","longitude":-97.7648,"latitude":30.2907,"completed":false,"completed_time":null,"images_urls":["https://source.unsplash.com/random/400x300/?img=1", "https://source.unsplash.com/random/400x300/?img=1", "https://picsum.photos/400/300"],"available_date":"2021-11-11T15:16:19Z"},
{"listing_id":190,"donor_id":189,"receiver_id":null,"type":"swap","title":"Sable","description":"Integer tincidunt ante vel ipsum. Praesent blandit lacinia erat. Vestibulum sed magna at nunc commodo placerat.\n\nPraesent blandit. Nam nulla. Integer pede justo, lacinia eget, tincidunt eget, tempus vel, pede.","zipcode":"79945","city":"El Paso","state":"TX","longitude":-106.3,"latitude":31.6948,"completed":false,"completed_time":null,"images_urls":["https://source.unsplash.com/random/400x300/?img=1", "https://source.unsplash.com/random/400x300/?img=1", "https://picsum.photos/400/300"],"available_date":"2022-02-17T08:01:52Z"},
{"listing_id":191,"donor_id":166,"receiver_id":null,"type":"swap","title":"Passat","description":"Curabitur gravida nisi at nibh. In hac habitasse platea dictumst. Aliquam augue quam, sollicitudin vitae, consectetuer eget, rutrum at, lorem.","zipcode":"75049","city":"Garland","state":"TX","longitude":-96.7776,"latitude":32.7673,"completed":false,"completed_time":null,"images_urls":["https://source.unsplash.com/random/400x300/?img=1", "https://source.unsplash.com/random/400x300/?img=1", "https://picsum.photos/400/300"],"available_date":"2021-09-24T10:53:45Z"},
{"listing_id":192,"donor_id":102,"receiver_id":null,"type":"swap","title":"Econoline E350","description":"Maecenas ut massa quis augue luctus tincidunt. Nulla mollis molestie lorem. Quisque ut erat.\n\nCurabitur gravida nisi at nibh. In hac habitasse platea dictumst. Aliquam augue quam, sollicitudin vitae, consectetuer eget, rutrum at, lorem.","zipcode":"78744","city":"Austin","state":"TX","longitude":-97.7472,"latitude":30.1876,"completed":false,"completed_time":null,"images_urls":["https://source.unsplash.com/random/400x300/?img=1", "https://source.unsplash.com/random/400x300/?img=1", "https://picsum.photos/400/300"],"available_date":"2021-11-13T00:29:46Z"},
{"listing_id":193,"donor_id":172,"receiver_id":null,"type":"swap","title":"3 Series","description":"Integer ac leo. Pellentesque ultrices mattis odio. Donec vitae nisi.\n\nNam ultrices, libero non mattis pulvinar, nulla pede ullamcorper augue, a suscipit nulla elit ac nulla. Sed vel enim sit amet nunc viverra dapibus. Nulla suscipit ligula in lacus.","zipcode":"76096","city":"Arlington","state":"TX","longitude":-97.2915,"latitude":32.7714,"completed":false,"completed_time":null,"images_urls":["https://source.unsplash.com/random/400x300/?img=1", "https://source.unsplash.com/random/400x300/?img=1", "https://picsum.photos/400/300"],"available_date":"2021-10-12T18:53:36Z"},
{"listing_id":194,"donor_id":191,"receiver_id":null,"type":"favor","title":"E-Class","description":"Phasellus in felis. Donec semper sapien a libero. Nam dui.","zipcode":"78044","city":"Laredo","state":"TX","longitude":-99.4819,"latitude":27.3637,"completed":false,"completed_time":null,"images_urls":["https://source.unsplash.com/random/400x300/?img=1", "https://source.unsplash.com/random/400x300/?img=1", "https://picsum.photos/400/300"],"available_date":"2022-03-31T09:06:23Z"},
{"listing_id":195,"donor_id":172,"receiver_id":null,"type":"swap","title":"M3","description":"Maecenas leo odio, condimentum id, luctus nec, molestie sed, justo. Pellentesque viverra pede ac diam. Cras pellentesque volutpat dui.\n\nMaecenas tristique, est et tempus semper, est quam pharetra magna, ac consequat metus sapien ut nunc. Vestibulum ante ipsum primis in faucibus orci luctus et ultrices posuere cubilia Curae; Mauris viverra diam vitae quam. Suspendisse potenti.","zipcode":"78426","city":"Corpus Christi","state":"TX","longitude":-97.4632,"latitude":27.777,"completed":false,"completed_time":null,"images_urls":["https://source.unsplash.com/random/400x300/?img=1", "https://source.unsplash.com/random/400x300/?img=1", "https://picsum.photos/400/300"],"available_date":"2021-11-16T09:31:27Z"},
{"listing_id":196,"donor_id":183,"receiver_id":null,"type":"favor","title":"MR2","description":"Proin eu mi. Nulla ac enim. In tempor, turpis nec euismod scelerisque, quam turpis adipiscing lorem, vitae mattis nibh ligula nec sem.","zipcode":"77245","city":"Houston","state":"TX","longitude":-95.4342,"latitude":29.834,"completed":false,"completed_time":null,"images_urls":["https://source.unsplash.com/random/400x300/?img=1", "https://source.unsplash.com/random/400x300/?img=1", "https://picsum.photos/400/300"],"available_date":"2022-04-16T01:21:02Z"},
{"listing_id":197,"donor_id":184,"receiver_id":null,"type":"favor","title":"Express 3500","description":"In sagittis dui vel nisl. Duis ac nibh. Fusce lacus purus, aliquet at, feugiat non, pretium quis, lectus.\n\nSuspendisse potenti. In eleifend quam a odio. In hac habitasse platea dictumst.","zipcode":"75372","city":"Dallas","state":"TX","longitude":-96.7776,"latitude":32.7673,"completed":false,"completed_time":null,"images_urls":["https://source.unsplash.com/random/400x300/?img=1", "https://source.unsplash.com/random/400x300/?img=1", "https://picsum.photos/400/300"],"available_date":"2022-04-22T17:18:46Z"},
{"listing_id":198,"donor_id":115,"receiver_id":null,"type":"swap","title":"Tacoma","description":"Nam ultrices, libero non mattis pulvinar, nulla pede ullamcorper augue, a suscipit nulla elit ac nulla. Sed vel enim sit amet nunc viverra dapibus. Nulla suscipit ligula in lacus.\n\nCurabitur at ipsum ac tellus semper interdum. Mauris ullamcorper purus sit amet nulla. Quisque arcu libero, rutrum ac, lobortis vel, dapibus at, diam.","zipcode":"78764","city":"Austin","state":"TX","longitude":-97.6595,"latitude":30.4455,"completed":false,"completed_time":null,"images_urls":["https://source.unsplash.com/random/400x300/?img=1", "https://source.unsplash.com/random/400x300/?img=1", "https://picsum.photos/400/300"],"available_date":"2021-05-19T12:33:31Z"},
{"listing_id":199,"donor_id":146,"receiver_id":null,"type":"favor","title":"LS","description":"Curabitur in libero ut massa volutpat convallis. Morbi odio odio, elementum eu, interdum eu, tincidunt in, leo. Maecenas pulvinar lobortis est.\n\nPhasellus sit amet erat. Nulla tempus. Vivamus in felis eu sapien cursus vestibulum.","zipcode":"75387","city":"Dallas","state":"TX","longitude":-96.7776,"latitude":32.7673,"completed":false,"completed_time":null,"images_urls":["https://source.unsplash.com/random/400x300/?img=1", "https://source.unsplash.com/random/400x300/?img=1", "https://picsum.photos/400/300"],"available_date":"2021-12-19T06:57:23Z"},
{"listing_id":200,"donor_id":148,"receiver_id":null,"type":"favor","title":"9-5","description":"In hac habitasse platea dictumst. Morbi vestibulum, velit id pretium iaculis, diam erat fermentum justo, nec condimentum neque sapien placerat ante. Nulla justo.","zipcode":"79977","city":"El Paso","state":"TX","longitude":-106.3,"latitude":31.6948,"completed":false,"completed_time":null,"images_urls":["https://source.unsplash.com/random/400x300/?img=1", "https://source.unsplash.com/random/400x300/?img=1", "https://picsum.photos/400/300"],"available_date":"2021-06-02T04:15:00Z"}]